{
  "University of Oslo": {
    "lat": 59.9399,
    "lng": 10.7217,
    "country": "Norway",
    "continent": "Europe",
    "city": "Oslo"
  },
  "Norwegian University of Science and Technology": {
    "lat": 63.4176,
    "lng": 10.4013,
    "country": "Norway",
    "continent": "Europe",
    "city": "Trondheim"
  },
  "KTH Royal Institute of Technology": {
    "lat": 59.3498,
    "lng": 18.0684,
    "country": "Sweden",
    "continent": "Europe",
    "city": "Stockholm"
  },
  "Lund University": {
    "lat": 55.7105,
    "lng": 13.2110,
    "country": "Sweden",
    "continent": "Europe",
    "city": "Lund"
  },
  "Chalmers University of Technology": {
    "lat": 57.6887,
    "lng": 11.9787,
    "country": "Sweden",
    "continent": "Europe",
    "city": "Gothenburg"
  },
  "Technical University of Denmark": {
    "lat": 55.7863,
    "lng": 12.5232,
    "country": "Denmark",
    "continent": "Europe",
    "city": "Lyngby"
  },
  "University of Copenhagen": {
    "lat": 55.6802,
    "lng": 12.5713,
    "country": "Denmark",
    "continent": "Europe",
    "city": "Copenhagen"
  },
  "Aarhus University": {
    "lat": 56.1680,
    "lng": 10.2006,
    "country": "Denmark",
    "continent": "Europe",
    "city": "Aarhus"
  },
  "Technical University of Munich": {
    "lat": 48.2648,
    "lng": 11.6719,
    "country": "Germany",
    "continent": "Europe",
    "city": "Munich"
  },
  "RWTH Aachen University": {
    "lat": 50.7801,
    "lng": 6.0782,
    "country": "Germany",
    "continent": "Europe",
    "city": "Aachen"
  },
  "Technical University of Berlin": {
    "lat": 52.5120,
    "lng": 13.3267,
    "country": "Germany",
    "continent": "Europe",
    "city": "Berlin"
  },
  "Karlsruhe Institute of Technology": {
    "lat": 49.0094,
    "lng": 8.4044,
    "country": "Germany",
    "continent": "Europe",
    "city": "Karlsruhe"
  },
  "University of Stuttgart": {
    "lat": 48.7454,
    "lng": 9.1068,
    "country": "Germany",
    "continent": "Europe",
    "city": "Stuttgart"
  },
  "MIT": {
    "lat": 42.3601,
    "lng": -71.0942,
    "country": "United States of America",
    "continent": "North America",
    "city": "Cambridge"
  },
  "Stanford University": {
    "lat": 37.4275,
    "lng": -122.1697,
    "country": "United States of America",
    "continent": "North America",
    "city": "Stanford"
  },
  "UC Berkeley": {
    "lat": 37.8719,
    "lng": -122.2585,
    "country": "United States of America",
    "continent": "North America",
    "city": "Berkeley"
  },
  "Carnegie Mellon University": {
    "lat": 40.4433,
    "lng": -79.9436,
    "country": "United States of America",
    "continent": "North America",
    "city": "Pittsburgh"
  },
  "Georgia Institute of Technology": {
    "lat": 33.7756,
    "lng": -84.3963,
    "country": "United States of America",
    "continent": "North America",
    "city": "Atlanta"
  },
  "University of Michigan": {
    "lat": 42.2780,
    "lng": -83.7382,
    "country": "United States of America",
    "continent": "North America",
    "city": "Ann Arbor"
  },
  "Caltech": {
    "lat": 34.1377,
    "lng": -118.1253,
    "country": "United States of America",
    "continent": "North America",
    "city": "Pasadena"
  },
  "Cornell University": {
    "lat": 42.4534,
    "lng": -76.4735,
    "country": "United States of America",
    "continent": "North America",
    "city": "Ithaca"
  },
  "Imperial College London": {
    "lat": 51.4988,
    "lng": -0.1749,
    "country": "United Kingdom",
    "continent": "Europe",
    "city": "London"
  },
  "University of Cambridge": {
    "lat": 52.2043,
    "lng": 0.1149,
    "country": "United Kingdom",
    "continent": "Europe",
    "city": "Cambridge"
  },
  "University of Oxford": {
    "lat": 51.7548,
    "lng": -1.2544,
    "country": "United Kingdom",
    "continent": "Europe",
    "city": "Oxford"
  },
  "University College London": {
    "lat": 51.5246,
    "lng": -0.1340,
    "country": "United Kingdom",
    "continent": "Europe",
    "city": "London"
  },
  "École Polytechnique": {
    "lat": 48.7144,
    "lng": 2.2079,
    "country": "France",
    "continent": "Europe",
    "city": "Palaiseau"
  },
  "Sorbonne University": {
    "lat": 48.8473,
    "lng": 2.3565,
    "country": "France",
    "continent": "Europe",
    "city": "Paris"
  },
  "CentraleSupélec": {
    "lat": 48.7095,
    "lng": 2.1666,
    "country": "France",
    "continent": "Europe",
    "city": "Gif-sur-Yvette"
  },
  "University of Tokyo": {
    "lat": 35.7136,
    "lng": 139.7626,
    "country": "Japan",
    "continent": "Asia",
    "city": "Tokyo"
  },
  "Kyoto University": {
    "lat": 35.0263,
    "lng": 135.7816,
    "country": "Japan",
    "continent": "Asia",
    "city": "Kyoto"
  },
  "Tokyo Institute of Technology": {
    "lat": 35.6051,
    "lng": 139.6843,
    "country": "Japan",
    "continent": "Asia",
    "city": "Tokyo"
  },
  "University of Melbourne": {
    "lat": -37.7982,
    "lng": 144.9608,
    "country": "Australia",
    "continent": "Oceania",
    "city": "Melbourne"
  },
  "Australian National University": {
    "lat": -35.2777,
    "lng": 149.1200,
    "country": "Australia",
    "continent": "Oceania",
    "city": "Canberra"
  },
  "University of Sydney": {
    "lat": -33.8886,
    "lng": 151.1873,
    "country": "Australia",
    "continent": "Oceania",
    "city": "Sydney"
  },
  "University of Toronto": {
    "lat": 43.6629,
    "lng": -79.3957,
    "country": "Canada",
    "continent": "North America",
    "city": "Toronto"
  },
  "University of British Columbia": {
    "lat": 49.2606,
    "lng": -123.2460,
    "country": "Canada",
    "continent": "North America",
    "city": "Vancouver"
  },
  "McGill University": {
    "lat": 45.5048,
    "lng": -73.5772,
    "country": "Canada",
    "continent": "North America",
    "city": "Montreal"
  },
  "ETH Zurich": {
    "lat": 47.3769,
    "lng": 8.5481,
    "country": "Switzerland",
    "continent": "Europe",
    "city": "Zürich"
  },
  "EPFL": {
    "lat": 46.5191,
    "lng": 6.5668,
    "country": "Switzerland",
    "continent": "Europe",
    "city": "Lausanne"
  },
  "Delft University of Technology": {
    "lat": 51.9988,
    "lng": 4.3732,
    "country": "Netherlands",
    "continent": "Europe",
    "city": "Delft"
  },
  "Eindhoven University of Technology": {
    "lat": 51.4477,
    "lng": 5.4905,
    "country": "Netherlands",
    "continent": "Europe",
    "city": "Eindhoven"
  },
  "Polytechnic University of Madrid": {
    "lat": 40.4530,
    "lng": -3.7300,
    "country": "Spain",
    "continent": "Europe",
    "city": "Madrid"
  },
  "Polytechnic University of Catalonia": {
    "lat": 41.3887,
    "lng": 2.1123,
    "country": "Spain",
    "continent": "Europe",
    "city": "Barcelona"
  },
  "Politecnico di Milano": {
    "lat": 45.4783,
    "lng": 9.2327,
    "country": "Italy",
    "continent": "Europe",
    "city": "Milan"
  },
  "University of Bologna": {
    "lat": 44.4974,
    "lng": 11.3547,
    "country": "Italy",
    "continent": "Europe",
    "city": "Bologna"
  },
  "National University of Singapore": {
    "lat": 1.2966,
    "lng": 103.7764,
    "country": "Singapore",
    "continent": "Asia",
    "city": "Singapore"
  },
  "Nanyang Technological University": {
    "lat": 1.3483,
    "lng": 103.6831,
    "country": "Singapore",
    "continent": "Asia",
    "city": "Singapore"
  },
  "KAIST": {
    "lat": 36.3736,
    "lng": 127.3632,
    "country": "South Korea",
    "continent": "Asia",
    "city": "Daejeon"
  },
  "Seoul National University": {
    "lat": 37.4601,
    "lng": 126.9520,
    "country": "South Korea",
    "continent": "Asia",
    "city": "Seoul"
  },
  "Tsinghua University": {
    "lat": 40.0010,
    "lng": 116.3262,
    "country": "China",
    "continent": "Asia",
    "city": "Beijing"
  },
  "Peking University": {
    "lat": 39.9925,
    "lng": 116.3061,
    "country": "China",
    "continent": "Asia",
    "city": "Beijing"
  },
  "Shanghai Jiao Tong University": {
    "lat": 31.0278,
    "lng": 121.4382,
    "country": "China",
    "continent": "Asia",
    "city": "Shanghai"
  },
  "University of Ghana": {
    "lat": 5.6517,
    "lng": -0.1870,
    "country": "Ghana",
    "continent": "Africa",
    "city": "Accra"
  },
  "University of Cape Town": {
    "lat": -33.9577,
    "lng": 18.4612,
    "country": "South Africa",
    "continent": "Africa",
    "city": "Cape Town"
  },
  "Makerere University": {
    "lat": 0.3301,
    "lng": 32.5713,
    "country": "Uganda",
    "continent": "Africa",
    "city": "Kampala"
  },
  "University of Ghent": {
    "lat": 51.0259,
    "lng": 3.7104,
    "country": "Belgium",
    "continent": "Europe",
    "city": "Ghent"
  },
  "Copenhagen Business School": {
    "lat": 55.6821,
    "lng": 12.5908,
    "country": "Denmark",
    "continent": "Europe",
    "city": "Copenhagen"
  },
  "Danmarks Tekniske Universitet": {
    "lat": 55.7863,
    "lng": 12.5232,
    "country": "Denmark",
    "continent": "Europe",
    "city": "Lyngby"
  },
  "Københavns Universitet": {
    "lat": 55.6802,
    "lng": 12.5713,
    "country": "Denmark",
    "continent": "Europe",
    "city": "Copenhagen"
  },
  "Grenoble Institute of Technology": {
    "lat": 45.1935,
    "lng": 5.7679,
    "country": "France",
    "continent": "Europe",
    "city": "Grenoble"
  },
  "Université de Lille": {
    "lat": 50.6092,
    "lng": 3.1371,
    "country": "France",
    "continent": "Europe",
    "city": "Lille"
  },
  "Libera Università di Bolzano": {
    "lat": 46.4983,
    "lng": 11.3548,
    "country": "Italy",
    "continent": "Europe",
    "city": "Bolzano"
  },
  "Politecnico di Torino": {
    "lat": 45.0628,
    "lng": 7.6621,
    "country": "Italy",
    "continent": "Europe",
    "city": "Turin"
  },
  "Sapienza Università di Roma": {
    "lat": 41.9028,
    "lng": 12.5155,
    "country": "Italy",
    "continent": "Europe",
    "city": "Rome"
  },
  "Università degli Studi di Firenze": {
    "lat": 43.7792,
    "lng": 11.2486,
    "country": "Italy",
    "continent": "Europe",
    "city": "Florence"
  },
  "Università degli Studi di Genova": {
    "lat": 44.4184,
    "lng": 8.9338,
    "country": "Italy",
    "continent": "Europe",
    "city": "Genoa"
  },
  "Università degli Studi di Padova": {
    "lat": 45.4064,
    "lng": 11.8768,
    "country": "Italy",
    "continent": "Europe",
    "city": "Padua"
  },
  "Università di Bologna": {
    "lat": 44.4974,
    "lng": 11.3547,
    "country": "Italy",
    "continent": "Europe",
    "city": "Bologna"
  },
  "Università di Pisa": {
    "lat": 43.7181,
    "lng": 10.4013,
    "country": "Italy",
    "continent": "Europe",
    "city": "Pisa"
  },
  "Università di Siena": {
    "lat": 43.3188,
    "lng": 11.3308,
    "country": "Italy",
    "continent": "Europe",
    "city": "Siena"
  },
  "University of Bergamo": {
    "lat": 45.6983,
    "lng": 9.6773,
    "country": "Italy",
    "continent": "Europe",
    "city": "Bergamo"
  },
  "University of Rome Tor Vergata": {
    "lat": 41.8538,
    "lng": 12.6014,
    "country": "Italy",
    "continent": "Europe",
    "city": "Rome"
  },
  "University of Venice": {
    "lat": 45.4371,
    "lng": 12.3326,
    "country": "Italy",
    "continent": "Europe",
    "city": "Venice"
  },
  "Erasmus Universiteit Rotterdam": {
    "lat": 51.9175,
    "lng": 4.5254,
    "country": "Netherlands",
    "continent": "Europe",
    "city": "Rotterdam"
  },
  "TU Delft": {
    "lat": 51.9988,
    "lng": 4.3732,
    "country": "Netherlands",
    "continent": "Europe",
    "city": "Delft"
  },
  "TU Eindhoven": {
    "lat": 51.4477,
    "lng": 5.4905,
    "country": "Netherlands",
    "continent": "Europe",
    "city": "Eindhoven"
  },
  "University of Twente": {
    "lat": 52.2392,
    "lng": 6.8509,
    "country": "Netherlands",
    "continent": "Europe",
    "city": "Enschede"
  },
  "Instituto Superior Técnico": {
    "lat": 38.7369,
    "lng": -9.1395,
    "country": "Portugal",
    "continent": "Europe",
    "city": "Lisbon"
  },
  "Politecnico de Lisboa": {
    "lat": 38.7223,
    "lng": -9.1393,
    "country": "Portugal",
    "continent": "Europe",
    "city": "Lisbon"
  },
  "Universidade Nova de Lisboa": {
    "lat": 38.6613,
    "lng": -9.2057,
    "country": "Portugal",
    "continent": "Europe",
    "city": "Lisbon"
  },
  "IE University": {
    "lat": 40.4168,
    "lng": -3.7038,
    "country": "Spain",
    "continent": "Europe",
    "city": "Madrid"
  },
  "Universidad Carlos III de Madrid": {
    "lat": 40.3315,
    "lng": -3.7657,
    "country": "Spain",
    "continent": "Europe",
    "city": "Madrid"
  },
  "Universidad de Alicante": {
    "lat": 38.3845,
    "lng": -0.5117,
    "country": "Spain",
    "continent": "Europe",
    "city": "Alicante"
  },
  "Universidad de Cádiz": {
    "lat": 36.5297,
    "lng": -6.2921,
    "country": "Spain",
    "continent": "Europe",
    "city": "Cádiz"
  },
  "Universidad de Cantabria": {
    "lat": 43.4713,
    "lng": -3.8009,
    "country": "Spain",
    "continent": "Europe",
    "city": "Santander"
  },
  "Universidad de Sevilla": {
    "lat": 37.3828,
    "lng": -5.9731,
    "country": "Spain",
    "continent": "Europe",
    "city": "Seville"
  },
  "Universidad del País Vasco": {
    "lat": 43.3314,
    "lng": -2.9740,
    "country": "Spain",
    "continent": "Europe",
    "city": "Bilbao"
  },
  "Universidad Politécnica de Cartagena": {
    "lat": 37.6031,
    "lng": -0.9867,
    "country": "Spain",
    "continent": "Europe",
    "city": "Cartagena"
  },
  "Universidad Politécnica de Madrid": {
    "lat": 40.4530,
    "lng": -3.7300,
    "country": "Spain",
    "continent": "Europe",
    "city": "Madrid"
  },
  "Universitat Politècnica de Catalunya": {
    "lat": 41.3887,
    "lng": 2.1123,
    "country": "Spain",
    "continent": "Europe",
    "city": "Barcelona"
  },
  "Universitat Politècnica de València": {
    "lat": 39.4810,
    "lng": -0.3473,
    "country": "Spain",
    "continent": "Europe",
    "city": "Valencia"
  },
  "King's College London": {
    "lat": 51.5115,
    "lng": -0.1160,
    "country": "United Kingdom",
    "continent": "Europe",
    "city": "London"
  },
  "London School of Economics": {
    "lat": 51.5144,
    "lng": -0.1167,
    "country": "United Kingdom",
    "continent": "Europe",
    "city": "London"
  },
  "Queen Mary University of London": {
    "lat": 51.5241,
    "lng": -0.0403,
    "country": "United Kingdom",
    "continent": "Europe",
    "city": "London"
  },
  "University of Leeds": {
    "lat": 53.8067,
    "lng": -1.5550,
    "country": "United Kingdom",
    "continent": "Europe",
    "city": "Leeds"
  },
  "University of Manchester": {
    "lat": 53.4668,
    "lng": -2.2339,
    "country": "United Kingdom",
    "continent": "Europe",
    "city": "Manchester"
  },
  "Heriot-Watt University": {
    "lat": 55.9103,
    "lng": -3.3127,
    "country": "United Kingdom",
    "continent": "Europe",
    "city": "Edinburgh"
  },
  "University of Edinburgh": {
    "lat": 55.9445,
    "lng": -3.1892,
    "country": "United Kingdom",
    "continent": "Europe",
    "city": "Edinburgh"
  },
  "University of Glasgow": {
    "lat": 55.8721,
    "lng": -4.2882,
    "country": "United Kingdom",
    "continent": "Europe",
    "city": "Glasgow"
  },
  "University of Strathclyde": {
    "lat": 55.8618,
    "lng": -4.2427,
    "country": "United Kingdom",
    "continent": "Europe",
    "city": "Glasgow"
  },
  "École Polytechnique Fédérale de Lausanne": {
    "lat": 46.5191,
    "lng": 6.5668,
    "country": "Switzerland",
    "continent": "Europe",
    "city": "Lausanne"
  },
  "ETH Zürich": {
    "lat": 47.3769,
    "lng": 8.5481,
    "country": "Switzerland",
    "continent": "Europe",
    "city": "Zürich"
  },
  "Lucerne University of Applied Sciences and Arts": {
    "lat": 47.0502,
    "lng": 8.3093,
    "country": "Switzerland",
    "continent": "Europe",
    "city": "Lucerne"
  },
  "University of St. Gallen": {
    "lat": 47.4300,
    "lng": 9.3765,
    "country": "Switzerland",
    "continent": "Europe",
    "city": "St. Gallen"
  },
  "Université de Lausanne": {
    "lat": 46.5225,
    "lng": 6.5802,
    "country": "Switzerland",
    "continent": "Europe",
    "city": "Lausanne"
  },
  "KTH Kungliga Tekniska Högskolan": {
    "lat": 59.3498,
    "lng": 18.0684,
    "country": "Sweden",
    "continent": "Europe",
    "city": "Stockholm"
  },
  "Lunds Universitet": {
    "lat": 55.7105,
    "lng": 13.2110,
    "country": "Sweden",
    "continent": "Europe",
    "city": "Lund"
  },
  "Czech Technical University": {
    "lat": 50.1030,
    "lng": 14.3915,
    "country": "Czech Republic",
    "continent": "Europe",
    "city": "Prague"
  },
  "Albert-Ludwigs-Universität Freiburg": {
    "lat": 47.9937,
    "lng": 7.8456,
    "country": "Germany",
    "continent": "Europe",
    "city": "Freiburg"
  },
  "Technische Universität Berlin": {
    "lat": 52.5120,
    "lng": 13.3267,
    "country": "Germany",
    "continent": "Europe",
    "city": "Berlin"
  },
  "Technische Universität München": {
    "lat": 48.2648,
    "lng": 11.6719,
    "country": "Germany",
    "continent": "Europe",
    "city": "Munich"
  },
  "Universität Mannheim": {
    "lat": 49.4835,
    "lng": 8.4664,
    "country": "Germany",
    "continent": "Europe",
    "city": "Mannheim"
  },
  "MCI Internationale Hochschule GmbH": {
    "lat": 47.2692,
    "lng": 11.3946,
    "country": "Austria",
    "continent": "Europe",
    "city": "Innsbruck"
  },
  "TU Graz": {
    "lat": 47.0665,
    "lng": 15.4501,
    "country": "Austria",
    "continent": "Europe",
    "city": "Graz"
  },
  "Universität Innsbruck": {
    "lat": 47.2636,
    "lng": 11.3851,
    "country": "Austria",
    "continent": "Europe",
    "city": "Innsbruck"
  },
  "Concordia University": {
    "lat": 45.4972,
    "lng": -73.5789,
    "country": "Canada",
    "continent": "North America",
    "city": "Montreal"
  },
  "Memorial University of Newfoundland": {
    "lat": 47.5736,
    "lng": -52.7358,
    "country": "Canada",
    "continent": "North America",
    "city": "St. John's"
  },
  "College of Charleston": {
    "lat": 32.7831,
    "lng": -79.9377,
    "country": "United States of America",
    "continent": "North America",
    "city": "Charleston"
  },
  "Columbia University in the City of New York": {
    "lat": 40.8075,
    "lng": -73.9626,
    "country": "United States of America",
    "continent": "North America",
    "city": "New York"
  },
  "Harvard University": {
    "lat": 42.3770,
    "lng": -71.1167,
    "country": "United States of America",
    "continent": "North America",
    "city": "Cambridge"
  },
  "Hawaii Pacific University": {
    "lat": 21.3099,
    "lng": -157.8581,
    "country": "United States of America",
    "continent": "North America",
    "city": "Honolulu"
  },
  "Massachusetts Institute of Technology": {
    "lat": 42.3601,
    "lng": -71.0942,
    "country": "United States of America",
    "continent": "North America",
    "city": "Cambridge"
  },
  "Michigan Technological University": {
    "lat": 47.1188,
    "lng": -88.5479,
    "country": "United States of America",
    "continent": "North America",
    "city": "Houghton"
  },
  "University of California, Berkeley": {
    "lat": 37.8719,
    "lng": -122.2585,
    "country": "United States of America",
    "continent": "North America",
    "city": "Berkeley"
  },
  "University of California, Irvine": {
    "lat": 33.6405,
    "lng": -117.8443,
    "country": "United States of America",
    "continent": "North America",
    "city": "Irvine"
  },
  "University of California, Los Angeles": {
    "lat": 34.0689,
    "lng": -118.4452,
    "country": "United States of America",
    "continent": "North America",
    "city": "Los Angeles"
  },
  "University of California, San Diego": {
    "lat": 32.8801,
    "lng": -117.2340,
    "country": "United States of America",
    "continent": "North America",
    "city": "San Diego"
  },
  "University of California, Santa Barbara": {
    "lat": 34.4140,
    "lng": -119.8489,
    "country": "United States of America",
    "continent": "North America",
    "city": "Santa Barbara"
  },
  "University of Colorado Boulder": {
    "lat": 40.0076,
    "lng": -105.2659,
    "country": "United States of America",
    "continent": "North America",
    "city": "Boulder"
  },
  "University of Hawaii at Manoa": {
    "lat": 21.2969,
    "lng": -157.8171,
    "country": "United States of America",
    "continent": "North America",
    "city": "Honolulu"
  },
  "University of Wisconsin - Madison": {
    "lat": 43.0766,
    "lng": -89.4125,
    "country": "United States of America",
    "continent": "North America",
    "city": "Madison"
  },
  "Yale University": {
    "lat": 41.3163,
    "lng": -72.9223,
    "country": "United States of America",
    "continent": "North America",
    "city": "New Haven"
  },
  "Griffith University": {
    "lat": -27.5562,
    "lng": 153.0554,
    "country": "Australia",
    "continent": "Oceania",
    "city": "Brisbane"
  },
  "Queensland University of Technology": {
    "lat": -27.4775,
    "lng": 153.0283,
    "country": "Australia",
    "continent": "Oceania",
    "city": "Brisbane"
  },
  "RMIT University": {
    "lat": -37.8080,
    "lng": 144.9631,
    "country": "Australia",
    "continent": "Oceania",
    "city": "Melbourne"
  },
  "The University of Queensland": {
    "lat": -27.4975,
    "lng": 153.0137,
    "country": "Australia",
    "continent": "Oceania",
    "city": "Brisbane"
  },
  "University of Newcastle": {
    "lat": -32.8915,
    "lng": 151.7068,
    "country": "Australia",
    "continent": "Oceania",
    "city": "Newcastle"
  },
  "University of New South Wales": {
    "lat": -33.9173,
    "lng": 151.2313,
    "country": "Australia",
    "continent": "Oceania",
    "city": "Sydney"
  },
  "University of the Sunshine Coast": {
    "lat": -26.7154,
    "lng": 153.0614,
    "country": "Australia",
    "continent": "Oceania",
    "city": "Sunshine Coast"
  },
  "University of Wollongong": {
    "lat": -34.4054,
    "lng": 150.8783,
    "country": "Australia",
    "continent": "Oceania",
    "city": "Wollongong"
  },
  "University of Auckland": {
    "lat": -36.8529,
    "lng": 174.7680,
    "country": "New Zealand",
    "continent": "Oceania",
    "city": "Auckland"
  },
  "University of Otago": {
    "lat": -45.8637,
    "lng": 170.5141,
    "country": "New Zealand",
    "continent": "Oceania",
    "city": "Dunedin"
  },
  "Instituto Tecnológico de Buenos Aires": {
    "lat": -34.5982,
    "lng": -58.4173,
    "country": "Argentina",
    "continent": "South America",
    "city": "Buenos Aires"
  },
  "Universidad de Buenos Aires": {
    "lat": -34.5997,
    "lng": -58.3732,
    "country": "Argentina",
    "continent": "South America",
    "city": "Buenos Aires"
  },
  "Universidade Federal do Rio de Janeiro": {
    "lat": -22.8619,
    "lng": -43.2242,
    "country": "Brazil",
    "continent": "South America",
    "city": "Rio de Janeiro"
  },
  "Pontificia Universidad Católica de Chile": {
    "lat": -33.4989,
    "lng": -70.6140,
    "country": "Chile",
    "continent": "South America",
    "city": "Santiago"
  },
  "Universidad Técnica Federico Santa María": {
    "lat": -33.0334,
    "lng": -71.5934,
    "country": "Chile",
    "continent": "South America",
    "city": "Valparaíso"
  },
  "Pontificia Universidad Católica del Perú": {
    "lat": -12.0686,
    "lng": -77.0789,
    "country": "Peru",
    "continent": "South America",
    "city": "Lima"
  }
}
